City_ID,City,Lat,Lng,Max Temp,Humidity,Cloudiness,Wind Speed,Country,Date
0,albany,42.6001,-73.9662,-0.43,86,100,1.1,US,1738594244
1,kapit,2.0167,112.9333,22.91,99,83,0.45,MY,1738594696
2,west island,-12.1568,96.8225,27.99,94,75,3.6,CC,1738594654
3,hawaiian paradise park,19.5933,-154.9731,17.16,77,75,3.09,US,1738594698
4,blackmans bay,-43.0167,147.3167,21.07,88,0,2.42,AU,1738594653
5,waitangi,-43.9535,-176.5597,14.34,84,38,4.02,NZ,1738594612
6,bethel,41.3712,-73.414,1.12,85,0,1.34,US,1738594616
7,banda aceh,5.5577,95.3222,25.9,78,66,3.13,ID,1738594702
8,iqaluit,63.7506,-68.5145,-31.84,67,20,2.06,CA,1738594628
9,adamstown,-25.066,-130.1015,24.95,71,100,6.54,PN,1738594705
10,biltine,14.5333,20.9167,33.69,6,20,4.32,TD,1738594429
11,port-aux-francais,-49.35,70.2167,3.78,68,22,3.32,TF,1738594635
12,wailua homesteads,22.0669,-159.378,16.44,94,20,2.57,US,1738594520
13,luderitz,-26.6481,15.1594,22.27,65,0,7.81,NA,1738594709
14,dehdasht,30.7949,50.5646,11.92,36,99,1.74,IR,1738594416
15,hermanus,-34.4187,19.2345,25.45,63,0,4.36,ZA,1738594711
16,touros,-5.1989,-35.4608,31.32,54,97,7.15,BR,1738594712
17,tiksi,71.6872,128.8694,-24.89,98,100,2.5,RU,1738594623
18,broken hill,-31.95,141.4333,28.2,44,93,4.11,AU,1738594714
19,karaton,-6.3424,106.1045,24.02,89,100,1.15,ID,1738594715
20,edinburgh of the seven seas,-37.0676,-12.3116,15.18,74,100,5.54,SH,1738594591
21,susuman,62.7833,148.1667,-48.02,99,81,0.34,RU,1738594651
22,ghat,24.9647,10.1728,20.45,20,0,3.06,LY,1738594718
23,baruun-urt,46.6806,113.2792,-23.19,91,46,2.77,MN,1738594720
24,ushuaia,-54.8,-68.3,6.81,76,40,10.8,AR,1738594394
25,avarua,-21.2078,-159.775,28.03,78,87,4.12,CK,1738594722
26,lebu,-37.6167,-73.65,17.04,61,0,4.62,CL,1738594652
27,shelton,41.3165,-73.0932,1.9,92,0,3.09,US,1738594712
28,karaman,37.0833,33.25,8.58,40,0,0.25,TR,1738594725
29,tralee,52.2704,-9.7026,11.14,93,100,7.72,IE,1738594726
30,jiangyou,31.7667,104.7167,7.07,53,20,1.15,CN,1738594727
31,shimoda,34.6667,138.95,8.13,66,36,9.88,JP,1738594728
32,acarau,-2.8856,-40.12,30.56,59,96,6.68,BR,1738594515
33,kapa'a,22.0752,-159.319,17.18,94,20,2.57,US,1738594731
34,hamilton,39.1834,-84.5333,12.22,75,100,4.12,US,1738594508
35,cabo san lucas,22.8909,-109.9124,19.41,37,22,1.08,MX,1738594734
36,puerto natales,-51.7236,-72.4875,7.25,87,100,5.66,CL,1738594637
37,marsa alam,25.0757,34.8918,21.93,58,47,3.55,EG,1738594736
38,lerwick,60.1545,-1.1494,8.16,94,100,10.81,GB,1738594737
39,yerofey pavlovich,53.9667,121.9667,-31.45,95,74,1.88,RU,1738594738
40,carnarvon,-24.8667,113.6333,28.14,68,0,12.64,AU,1738594739
41,laguna,38.421,-121.4238,13.14,90,100,2.06,US,1738594150
42,hammerfest,70.6634,23.6821,-9.75,57,0,3.09,NO,1738594741
43,port alfred,-33.5906,26.891,25.1,73,0,2.24,ZA,1738594742
44,taksimo,56.3444,114.8794,-30.04,91,80,1.62,RU,1738594743
45,la gi,10.6667,107.7833,23.08,82,3,5.8,VN,1738594744
46,conde,-7.2597,-34.9075,30.7,66,75,6.69,BR,1738594491
47,chonchi,-42.6128,-73.8092,16.73,78,100,1.66,CL,1738594746
48,dos palos,36.9861,-120.6266,8.86,91,100,2.08,US,1738594747
49,richards bay,-28.783,32.0377,26.36,81,95,5.23,ZA,1738594525
50,tura,25.5198,90.2201,16.66,55,0,2.19,IN,1738594750
51,krutinka,56.0055,71.5113,-1.78,96,100,2.11,RU,1738594752
52,kristiansund,63.1115,7.732,6.18,65,0,2.06,NO,1738594753
53,curup,-3.4667,102.5333,21.13,97,100,1.18,ID,1738594754
54,oyem,1.5995,11.5793,32.81,29,100,0.37,GA,1738594755
55,udachny,66.4167,112.4,-15.27,92,100,14.53,RU,1738594677
56,nyurba,63.2842,118.3319,-21.66,95,100,6.15,RU,1738594757
57,mount gambier,-37.8333,140.7667,21.8,65,100,3.13,AU,1738594758
58,college,64.8569,-147.8028,-11.03,85,100,0.0,US,1738594606
59,mahibadhoo,3.7833,72.9667,27.82,74,54,5.71,MV,1738594760
60,port mathurin,-19.6833,63.4167,27.4,82,97,4.31,MU,1738594617
61,nogliki,51.8333,143.1667,-22.27,100,87,2.27,RU,1738594762
62,jamestown,42.097,-79.2353,3.9,99,100,3.6,US,1738594645
63,vila franca do campo,37.7167,-25.4333,18.27,99,100,6.02,PT,1738594764
64,senhor do bonfim,-10.4614,-40.1894,22.92,73,100,3.03,BR,1738594533
65,siavonga,-16.5382,28.7088,31.08,57,99,0.7,ZM,1738594766
66,kampene,-3.6,26.6667,27.95,56,100,0.64,CD,1738594767
67,villeneuve-sur-yonne,48.0825,3.2969,7.75,67,2,1.6,FR,1738594769
68,grytviken,-54.2811,-36.5092,6.28,88,100,2.62,GS,1738594636
69,gembu,6.7,11.2667,31.62,13,28,2.94,NG,1738594771
70,suining,30.508,105.5733,8.43,84,0,2.19,CN,1738594772
71,kayangel,8.0823,134.7173,28.43,78,97,9.81,PW,1738594773
72,margate,51.3813,1.3862,9.27,73,44,4.39,GB,1738594623
73,papatowai,-46.5619,169.4708,11.92,78,87,4.88,NZ,1738594775
74,mossel bay,-34.1831,22.146,22.63,64,0,4.52,ZA,1738594776
75,haiku-pauwela,20.9219,-156.3051,18.47,83,0,3.58,US,1738594777
76,kamaishi,39.2667,141.8833,3.79,92,100,2.55,JP,1738594778
77,lazaro cardenas,17.9583,-102.2,24.96,72,2,1.9,MX,1738594779
78,zag,46.9441,99.165,-26.09,86,77,2.12,MN,1738594780
79,yellowknife,62.456,-114.3525,-28.71,76,20,3.09,CA,1738594583
80,pader palwo,2.8006,33.135,34.13,17,91,3.66,UG,1738594782
81,flying fish cove,-10.4217,105.6791,22.82,100,100,7.2,CX,1738594783
82,buckeye,33.3703,-112.5838,11.43,33,83,2.83,US,1738594785
83,mermoz boabab,14.7065,-17.4758,19.23,58,41,7.69,SN,1738594786
84,collaroy,-33.7382,151.2997,23.42,83,81,2.68,AU,1738594787
85,quellon,-43.1167,-73.6167,11.68,85,100,2.65,CL,1738594788
86,whitehorse,60.7161,-135.0538,-16.57,85,100,1.03,CA,1738594599
87,shalya,57.2471,58.7298,-2.64,95,100,2.11,RU,1738594790
88,loen,7.7601,168.2307,27.36,74,32,9.73,MH,1738594791
89,fort stockton,30.894,-102.8793,19.86,23,0,2.52,US,1738594792
90,ballina,-28.8667,153.5667,22.83,86,95,1.74,AU,1738594793
91,holualoa,19.6228,-155.9522,18.24,81,40,0.89,US,1738594794
92,mentougou,39.9392,116.0917,-5.61,34,0,1.72,CN,1738594795
93,ormara,25.2088,64.6357,20.97,50,0,8.5,PK,1738594796
94,rusape,-18.5278,32.1284,25.31,52,96,4.52,ZW,1738594798
95,kaohsiung,22.6163,120.3133,13.97,77,75,4.12,TW,1738594799
96,atafu village,-8.5421,-172.5159,28.07,67,66,5.91,TK,1738594593
97,tazovsky,67.4667,78.7,-33.23,99,88,2.32,RU,1738594583
98,alice springs,-23.7,133.8833,29.75,30,0,5.14,AU,1738594803
99,georgetown,5.4112,100.3354,26.96,69,20,1.54,MY,1738594626
100,razampeta,14.1833,79.1667,23.28,43,63,1.92,IN,1738594805
101,el granada,37.5027,-122.4694,13.9,88,100,7.2,US,1738594806
102,grand-bassam,5.2118,-3.7388,31.98,62,99,5.12,CI,1738594807
103,portage la prairie,49.9728,-98.2926,-20.62,71,75,5.66,CA,1738594809
104,betare oya,5.6,14.0833,36.99,11,13,3.89,CM,1738594810
105,port elizabeth,-33.918,25.5701,25.73,65,0,2.24,ZA,1738594811
106,puerto ayora,-0.7393,-90.3518,25.31,96,47,0.89,EC,1738594613
107,yemva,62.59,50.8594,-14.83,95,100,3.28,RU,1738594814
108,mega,4.05,38.3,26.25,21,92,5.82,ET,1738594815
109,capo d'orlando,38.1435,14.7305,13.16,83,100,2.18,IT,1738594816
110,tolanaro,-25.0319,46.9987,28.04,65,40,9.26,MG,1738594817
111,pauini,-7.7136,-66.9764,26.85,89,75,1.91,BR,1738594818
112,klyuchi,52.2667,79.1667,-2.77,91,99,2.33,RU,1738594819
113,longyearbyen,78.2186,15.6401,1.91,60,40,5.66,SJ,1738594820
114,karkira,36.9292,6.5856,11.81,90,94,4.18,DZ,1738594822
115,minas de marcona,-15.2119,-75.1103,22.34,63,83,3.25,PE,1738594823
116,lompoc,34.6391,-120.4579,11.07,72,100,1.54,US,1738594824
117,myeik,12.4333,98.6,25.04,76,0,1.81,MM,1738594825
118,chinde,26.8212,87.7095,15.69,58,0,2.55,NP,1738594826
119,ust-nera,64.5667,143.2,-40.46,99,90,1.73,RU,1738594827
120,panacan,9.2463,118.4082,25.85,87,9,2.45,PH,1738594828
121,enewetak,11.3474,162.3373,26.75,68,100,11.01,MH,1738594829
122,tyuratam,45.6507,63.3156,-4.36,79,82,6.46,KZ,1738594830
123,dudinka,69.4058,86.1778,-22.82,89,100,3.43,RU,1738594806
124,codrington,-38.2667,141.9667,21.93,73,70,4.99,AU,1738594832
125,petropavlovsk-kamchatsky,53.0452,158.6483,-17.67,51,0,2.0,RU,1738594833
126,nelson bay,-32.7167,152.15,23.38,89,72,2.68,AU,1738594836
127,terrace,54.5163,-128.6035,-13.05,47,0,8.23,CA,1738594837
128,hargeysa,9.56,44.065,16.89,61,100,7.27,SO,1738594838
129,st. john's,47.5649,-52.7093,-4.46,73,100,6.17,CA,1738594769
130,bilibino,68.0546,166.4372,-32.3,99,100,0.97,RU,1738594594
131,san patricio,28.017,-97.5169,20.97,90,75,4.97,US,1738594841
132,remire-montjoly,4.9167,-52.2667,28.02,83,75,2.57,GF,1738594842
133,ilha solteira,-20.4328,-51.3425,23.46,89,100,4.28,BR,1738594844
134,toliara,-23.35,43.6667,29.85,62,100,7.91,MG,1738594845
135,nemuro,43.3236,145.575,-1.44,96,100,10.68,JP,1738594846
136,senador jose porfirio,-2.5908,-51.9542,25.42,86,87,0.79,BR,1738594847
137,galliano,29.4422,-90.2992,20.0,77,0,3.09,US,1738594848
138,nuuk,64.1835,-51.7216,-10.66,67,75,8.75,GL,1738594849
139,manokwari,-0.8667,134.0833,25.25,83,100,6.78,ID,1738594850
140,fortuna,40.5982,-124.1573,5.75,98,100,3.09,US,1738594772
141,floro,61.5996,5.0328,4.98,87,75,7.2,NO,1738594852
142,diboll,31.1871,-94.781,17.9,97,28,3.37,US,1738594853
143,malvan,16.0667,73.4667,25.21,74,41,6.38,IN,1738594854
144,tahe,52.3333,124.7333,-22.71,88,100,3.49,CN,1738594857
145,twon-brass,4.3151,6.2418,28.71,73,91,6.93,NG,1738594858
146,solnechnyy,50.7214,136.6319,-21.91,96,90,2.19,RU,1738594859
147,thinadhoo,0.5333,72.9333,27.94,66,2,1.97,MV,1738594860
148,morehead city,34.7229,-76.726,9.0,93,100,2.06,US,1738594567
149,ambanja,-13.6833,48.45,24.41,93,100,0.98,MG,1738594862
150,singaraja,-8.112,115.0882,27.4,84,98,1.88,ID,1738594863
151,halifax,44.6453,-63.5724,-2.53,85,100,1.54,CA,1738594366
152,egilsstadir,65.2653,-14.3948,5.95,70,75,12.86,IS,1738594865
153,punta arenas,-53.15,-70.9167,9.06,57,40,10.8,CL,1738594866
154,yankton,42.8711,-97.3973,-2.86,80,100,7.72,US,1738594833
155,santa maria,-29.6842,-53.8069,32.61,52,0,2.06,BR,1738594868
156,mantua,45.1667,10.7833,12.97,75,7,0.89,IT,1738594869
157,uray,60.1247,64.7758,-17.85,99,100,1.88,RU,1738594871
158,northam,51.0333,-4.2167,11.0,67,100,2.24,GB,1738594873
159,reggane,26.7158,0.1714,21.49,14,0,4.12,DZ,1738594874
160,margaret river,-33.95,115.0667,16.74,72,2,6.52,AU,1738594875
161,saint-philippe,-21.3585,55.7679,28.69,83,53,4.11,RE,1738594876
162,yoakum,29.2878,-97.1519,18.66,92,100,4.21,US,1738594877
163,meadow lakes,61.6247,-149.6011,-14.96,90,0,0.0,US,1738594878
164,oranjemund,-28.55,16.4333,21.53,68,3,8.61,NA,1738594879
165,east london,-33.0153,27.9116,24.58,65,20,5.48,ZA,1738594819
166,sittwe,20.15,92.9,24.27,57,2,8.55,MM,1738594882
167,bowen,-20.0167,148.2333,25.38,88,100,4.91,AU,1738594883
168,saipan,15.1355,145.701,27.39,78,0,3.09,MP,1738594625
169,vorgashor,67.5833,63.95,-28.42,95,9,2.77,RU,1738594886
170,taro,-8.3862,115.28,21.52,91,100,0.89,ID,1738594888
171,bredasdorp,-34.5322,20.0403,25.22,44,0,6.39,ZA,1738594632
172,thompson,55.7435,-97.8558,-23.91,77,100,5.66,CA,1738594891
173,thunder bay,48.4001,-89.3168,-15.01,66,75,4.63,CA,1738594894
174,la passe,45.5549,-0.8967,10.29,62,0,1.83,FR,1738594634
175,pacific grove,36.6177,-121.9166,11.72,96,100,5.81,US,1738594897
176,jayapura,-2.5333,140.7,24.66,93,100,3.72,ID,1738594816
177,happy valley-goose bay,53.3168,-60.3315,-21.83,64,75,6.69,CA,1738594638
178,venancio aires,-29.6064,-52.1919,37.48,29,0,1.9,BR,1738594900
179,dunedin,-45.8742,170.5036,14.33,80,14,1.79,NZ,1738594629
180,kenai,60.5544,-151.2583,-9.92,85,0,1.54,US,1738594903
181,skerries,53.5828,-6.1083,11.43,76,83,8.87,IE,1738594905
182,tan-tan,28.438,-11.1032,18.97,59,75,9.26,MA,1738594907
183,sao jose da coroa grande,-8.8978,-35.1478,29.39,63,24,5.81,BR,1738594871
184,kodiak,57.79,-152.4072,0.39,85,27,2.65,US,1738594910
185,shihezi,44.3,86.0333,-16.37,97,84,2.54,CN,1738594911
186,olonkinbyen,70.9221,-8.7187,0.36,93,100,22.9,SJ,1738594913
187,coyhaique,-45.5752,-72.0662,12.2,57,86,4.27,CL,1738594692
188,nhamunda,-2.1861,-56.7131,33.2,44,100,2.32,BR,1738594915
189,cidade velha,14.9167,-23.6167,25.26,44,40,11.32,CV,1738594916
190,itaituba,-4.2761,-55.9836,27.09,83,75,2.57,BR,1738594844
191,vallenar,-28.5708,-70.7581,27.55,34,0,3.05,CL,1738594737
192,thaba-tseka,-29.522,28.6084,23.05,35,89,2.25,LS,1738594919
193,sandnessjoen,66.0217,12.6316,-0.94,55,75,2.57,NO,1738594920
194,palmer,42.1584,-72.3287,2.4,86,93,1.39,US,1738594921
195,rio grande,-32.035,-52.0986,28.34,71,32,4.68,BR,1738594524
196,ribeira grande,38.5167,-28.7,18.22,88,75,8.05,PT,1738594592
197,pamandzi,-12.7967,45.2794,27.88,83,75,7.2,YT,1738594924
198,keflavik,64.0049,-22.5624,2.24,87,75,16.98,IS,1738594926
199,kharp,66.8014,65.8081,-24.03,97,98,2.74,RU,1738594927
200,mariental,-24.6333,17.9667,33.29,26,99,4.74,NA,1738594928
201,hilo,19.7297,-155.09,17.28,77,0,1.34,US,1738594929
202,morfelden-walldorf,49.9947,8.5836,3.03,85,100,1.54,DE,1738594930
203,notodden,59.5594,9.2585,-0.69,86,75,0.0,NO,1738594931
204,dom pedrito,-30.9828,-54.6731,38.26,24,0,1.46,BR,1738594932
205,olyokminsk,60.3736,120.4264,-21.64,86,100,4.69,RU,1738594933
206,stanley,54.868,-1.6985,9.18,77,20,5.66,GB,1738594934
207,badger,64.8,-147.5333,-11.07,92,100,0.0,US,1738594640
208,juba,4.8517,31.5825,37.89,14,89,4.62,SS,1738594936
209,weyburn,49.6668,-103.8511,-27.88,76,82,6.69,CA,1738594833
210,hithadhoo,-0.6,73.0833,28.08,70,65,1.85,MV,1738594938
211,skjern,55.95,8.5,2.99,87,100,3.6,DK,1738594831
212,kununurra,-15.7667,128.7333,24.99,83,100,5.66,AU,1738594768
213,mariehamn,60.0973,19.9348,-3.08,74,100,4.12,AX,1738594942
214,crosne,48.7192,2.4573,10.04,75,0,2.57,FR,1738594943
215,maysville,38.6412,-83.7444,12.72,66,0,4.12,US,1738594944
216,verkh-chebula,56.0308,87.6218,-13.57,98,100,1.39,RU,1738594945
217,gijang,35.2442,129.2139,-3.15,56,0,7.91,KR,1738594946
218,rongelap,11.1635,166.8941,26.47,69,37,10.74,MH,1738594947
219,novyye burasy,52.1324,46.0714,-4.65,97,100,1.05,RU,1738594948
220,marsh harbour,26.5412,-77.0636,23.22,76,2,4.3,BS,1738594777
221,yung shue wan,22.2333,114.1167,13.75,65,100,8.19,HK,1738594950
222,kingston,17.997,-76.7936,29.53,69,20,2.06,JM,1738594405
223,norderney,53.7,7.15,2.76,89,51,4.22,DE,1738594952
224,kilifi,-3.6305,39.8499,26.7,75,59,7.68,KE,1738594955
225,chiang rai,19.9167,99.9167,20.32,77,0,1.03,TH,1738594956
226,vila velha,-20.3297,-40.2925,32.97,49,40,6.17,BR,1738594775
227,nantucket,41.2835,-70.0995,5.06,87,75,2.57,US,1738594958
228,katsuura,35.1333,140.3,11.4,58,87,11.71,JP,1738594960
229,lamar,33.6668,-95.5836,16.95,89,0,6.69,US,1738594961
230,ardakan,32.31,54.0175,8.73,20,0,1.56,IR,1738594962
231,cumana,10.4635,-64.1775,27.42,66,48,5.22,VE,1738594513
232,ingeniero jacobacci,-41.3427,-69.5448,15.49,25,27,7.24,AR,1738594964
233,dikhil,11.5,42.1667,23.08,53,68,7.16,DJ,1738594965
234,saint-pierre,-21.3393,55.4781,29.82,79,75,7.72,RE,1738594633
235,kill devil hills,36.0307,-75.676,7.77,99,100,2.57,US,1738594969
236,aykhal,66.0,111.5,-15.74,94,100,16.62,RU,1738594758
237,laojunmiao,39.8333,97.7333,-10.09,63,3,1.5,CN,1738594971
238,kavaratti,10.5669,72.642,27.58,72,75,4.88,IN,1738594972
239,champerico,14.3,-91.9167,27.74,69,5,0.99,GT,1738594819
240,palangkaraya,-2.2,113.8333,24.12,96,58,1.3,ID,1738594974
241,crane,31.3974,-102.3501,15.84,21,0,2.35,US,1738594975
242,cozumel,20.5083,-86.9458,26.64,82,96,5.57,MX,1738594911
243,capiovi,-26.93,-55.0608,36.53,28,0,1.97,AR,1738594977
244,ebon,4.582,168.6964,27.66,79,59,10.89,MH,1738594978
245,qaqortoq,60.7167,-46.0333,-17.02,83,8,1.33,GL,1738594979
246,invercargill,-46.4,168.35,13.34,77,44,2.24,NZ,1738594980
247,arraial do cabo,-22.9661,-42.0278,32.98,52,0,5.14,BR,1738594622
248,verkhnevilyuysk,63.4453,120.3167,-21.89,94,100,5.61,RU,1738594982
249,pisco,-13.7,-76.2167,25.01,78,0,3.09,PE,1738594983
250,san mariano,7.5,126.0,21.81,90,94,1.34,PH,1738594984
251,novyy urengoy,66.0833,76.6333,-26.16,99,21,3.52,RU,1738594841
252,okha,53.5739,142.9478,-21.83,99,98,3.92,RU,1738594987
253,fale old settlement,-9.3852,-171.2468,28.47,67,96,5.38,TK,1738594988
254,pemangkat,1.1667,108.9667,25.32,89,96,4.36,ID,1738594989
255,sitka,57.0531,-135.33,-2.06,20,0,0.0,US,1738594427
256,qamdo,31.1667,97.2333,-0.65,18,0,0.8,CN,1738594991
257,constantia,44.1833,28.65,3.38,67,100,7.47,RO,1738594854
258,rio preto da eva,-2.6994,-59.6997,31.71,51,100,2.33,BR,1738594993
259,grande prairie,55.1667,-118.8027,-35.9,75,75,2.06,CA,1738594749
260,joshimath,30.5667,79.5667,4.47,25,3,5.2,IN,1738594995
261,nazret,8.55,39.2667,22.95,33,95,8.68,ET,1738594996
262,kirensk,57.7853,108.1119,-32.02,100,91,1.26,RU,1738594997
263,isafjordur,66.0755,-23.124,0.02,93,100,10.8,IS,1738594999
264,al qaryatayn,34.2296,37.2407,12.18,42,100,2.21,SY,1738595000
265,fort wellington,6.4,-57.6,27.5,72,30,4.45,GY,1738595001
266,trincomalee,8.5711,81.2335,26.39,67,61,4.91,LK,1738595002
267,porto novo,6.4965,2.6036,32.9,58,52,3.93,BJ,1738595003
268,unai,-16.3575,-46.9061,27.27,68,95,1.5,BR,1738595004
269,plainview,40.7765,-73.4673,4.23,85,0,3.09,US,1738594910
270,tsiombe,-25.3,45.4833,25.82,70,5,5.44,MG,1738595007
271,mejit,10.2753,170.8646,26.19,73,89,9.7,MH,1738595008
272,carutapera,-1.195,-46.02,24.58,95,100,2.72,BR,1738594999
273,semey,50.4111,80.2275,-11.88,92,40,2.0,KZ,1738595010
274,queenstown,-31.8976,26.8753,32.01,22,0,3.91,ZA,1738594603
275,christchurch,-43.5333,172.6333,14.07,87,10,1.52,NZ,1738594980
276,labrador city,52.9463,-66.9114,-20.05,77,100,3.09,CA,1738594813
277,iskateley,67.6803,53.1512,-26.27,90,5,4.45,RU,1738595014
278,castillos,-34.1667,-53.8333,33.0,39,0,2.82,UY,1738595015
279,anadyr,64.75,177.4833,0.28,93,40,11.0,RU,1738595016
280,constitucion,-35.3333,-72.4167,21.35,54,9,5.45,CL,1738595017
281,hassi messaoud,31.6804,6.0729,15.92,36,0,3.09,DZ,1738595018
282,pizarro,4.9533,-77.366,26.44,86,100,2.07,CO,1738595019
283,shiguai,40.7058,110.2856,-14.77,82,9,2.57,CN,1738595020
284,xianshuigu,38.985,117.3828,-5.0,28,0,7.0,CN,1738595021
285,ancud,-41.8697,-73.8203,14.88,62,71,3.5,CL,1738594806
286,marksville,31.128,-92.0662,15.48,91,18,3.98,US,1738595023
287,beli manastir,45.77,18.6036,3.91,72,46,1.12,HR,1738595026
288,kralendijk,12.15,-68.2667,29.99,62,40,8.23,BQ,1738595027
289,tshela,-4.9833,12.9333,30.91,59,72,1.83,CD,1738595028
290,acajutla,13.5928,-89.8275,29.49,47,29,2.7,SV,1738595029
291,new norfolk,-42.7826,147.0587,18.84,50,0,1.45,AU,1738595030
292,weno,7.4515,151.8468,28.97,84,100,4.12,FM,1738595031
293,namibe,-15.1961,12.1522,25.28,74,45,5.7,AO,1738595032
294,lae,-6.7221,146.9847,24.27,89,100,2.01,PG,1738595033
295,nsunga,-1.1439,31.3947,26.02,48,77,1.53,TZ,1738595034
296,muscat,23.6139,58.5922,19.27,48,1,2.39,OM,1738594815
297,selfoss,63.9331,-20.9971,3.36,96,100,15.72,IS,1738595036
298,muisne,0.6,-80.0333,26.01,84,89,2.71,EC,1738595037
299,devon,50.75,-3.75,11.48,68,100,4.5,GB,1738594831
300,ust'-kulom,61.6864,53.6902,-9.01,95,100,2.85,RU,1738595039
301,zhangatas,43.5667,69.75,-4.32,83,20,5.87,KZ,1738595040
302,sinabang,2.4803,96.3801,26.65,77,89,1.65,ID,1738595042
303,illizi,26.4833,8.4667,19.31,27,0,4.24,DZ,1738594848
304,vyritsa,59.4078,30.3481,-6.43,91,100,3.01,RU,1738595044
305,nizhniy kuranakh,58.8353,125.4869,-28.46,96,100,2.6,RU,1738595045
306,arteche,12.2645,125.4048,24.77,84,100,3.19,PH,1738595046
307,nouadhibou,20.931,-17.0347,24.99,33,0,8.23,MR,1738595047
308,lhuentse,27.6679,91.1839,10.38,90,90,0.45,BT,1738595048
309,taroa,8.7058,171.2275,26.89,78,63,10.29,MH,1738595049
310,lai chau,22.3997,103.4517,6.5,83,69,2.44,VN,1738595050
311,khujner,23.7833,76.6,24.05,39,18,2.28,IN,1738595051
312,al mijlad,11.0333,27.7333,36.02,11,37,4.57,SD,1738595054
313,jumla,29.2747,82.1838,4.24,24,12,2.56,NP,1738595056
314,huayin,34.5675,110.0921,1.82,51,0,2.49,CN,1738595057
315,natal,-5.795,-35.2094,32.36,62,75,9.26,BR,1738594994
316,uturoa,-16.7333,-151.4333,27.33,76,24,4.6,PF,1738595059
317,prince george,53.9166,-122.753,-22.06,64,75,7.2,CA,1738594778
318,bambanglipuro,-7.95,110.2833,25.74,86,100,2.69,ID,1738595061
319,edmundston,47.3737,-68.3251,-7.15,83,75,4.63,CA,1738595062
320,andergrove,-21.0833,149.1833,25.82,83,100,7.65,AU,1738595063
321,shepherdsville,37.9884,-85.7158,15.12,59,74,1.34,US,1738594821
322,tari,-11.1105,14.3559,23.35,80,70,2.2,AO,1738595065
323,arkhangel'sk,64.5401,40.5433,-19.94,77,0,3.0,RU,1738595066
324,tremonton,41.7119,-112.1655,7.22,68,100,2.24,US,1738595067
325,lilongwe,-13.9669,33.7873,22.74,91,100,1.82,MW,1738594968
326,wynyard,-41.0,145.7167,20.1,93,99,4.47,AU,1738595069
327,polyarnyy,69.1989,33.4478,-17.69,98,19,2.26,RU,1738595070
328,vadso,70.0744,29.7487,-6.91,68,2,6.17,NO,1738595071
329,yaren,-0.5472,166.916,26.55,82,37,6.39,NR,1738595073
330,vel'sk,61.0701,42.0983,-11.84,96,100,2.03,RU,1738595074
331,bandarbeyla,9.4942,50.8122,22.84,62,17,11.07,SO,1738595075
332,villa zaragoza,22.0333,-100.7333,13.41,65,0,0.57,MX,1738595076
333,afif,23.9065,42.9172,18.1,19,68,3.11,SA,1738595077
334,namtsy,62.7161,129.6658,-33.68,99,100,2.52,RU,1738595078
335,araripe,-7.2125,-40.0461,29.39,42,98,4.46,BR,1738595079
336,utrik,11.2278,169.8474,26.58,66,42,10.5,MH,1738594630
337,trail,49.0998,-117.7022,-4.07,97,100,1.16,CA,1738595081
338,yanam,16.7333,82.2167,20.95,86,3,1.26,IN,1738595083
339,chibougamau,49.9168,-74.3659,-12.21,85,100,5.14,CA,1738595085
340,lhokseumawe,5.1801,97.1507,25.5,77,97,0.9,ID,1738595086
341,haapsalu,58.9431,23.5414,-1.68,83,100,3.52,EE,1738595087
342,al jawf,29.5,38.75,17.72,13,91,2.49,SA,1738595088
343,revda,56.801,59.9303,-1.71,98,100,1.64,RU,1738595089
344,vilyuchinsk,52.9306,158.4028,-16.85,75,22,3.59,RU,1738595090
345,flin flon,54.7682,-101.865,-23.09,77,100,5.14,CA,1738595091
346,massakory,12.996,15.7293,34.64,7,5,5.18,TD,1738595092
347,palikir - national government center,6.9248,158.1611,28.41,74,100,4.12,FM,1738595093
348,nyandoma,61.669,40.1991,-14.99,94,100,2.57,RU,1738595094
349,magadan,59.5667,150.8,-27.74,81,2,2.51,RU,1738595095
350,wamba,8.9333,8.6,37.59,9,3,3.27,NG,1738595096
351,bel ombre,-4.6167,55.4167,28.91,74,40,4.12,SC,1738595097
352,barcelos,41.5388,-8.6151,15.07,53,0,0.84,PT,1738595098
353,kruisfontein,-34.0033,24.7314,22.95,59,0,5.53,ZA,1738595099
354,zagora,30.3484,-5.8365,18.93,15,0,7.42,MA,1738595100
355,slave lake,55.2834,-114.769,-33.01,68,0,3.09,CA,1738595101
356,sucre,-19.0333,-65.2627,19.02,43,0,2.69,BO,1738595102
357,talnakh,69.4865,88.3972,-21.86,87,100,2.18,RU,1738595104
358,coxen hole,16.3244,-86.5366,26.41,94,75,1.03,HN,1738595105
359,la sarre,48.8002,-79.1996,-8.74,87,88,6.74,CA,1738594859
360,papao,-17.75,-149.55,24.82,72,22,3.73,PF,1738594601
361,north bend,43.4065,-124.2243,2.95,100,100,2.57,US,1738595108
362,homer,59.6425,-151.5483,-4.19,73,16,1.35,US,1738594944
363,bolsward,53.0655,5.5318,5.56,91,51,3.63,NL,1738595110
364,gummi,12.1436,5.1081,37.05,9,56,3.9,NG,1738595111
365,djambala,-2.5447,14.7533,28.63,54,97,2.63,CG,1738594932
366,lihue,21.9789,-159.3672,17.77,88,0,3.6,US,1738595113
367,taulaga,-11.0553,-171.0883,27.97,72,23,3.57,AS,1738595114
368,yuanping,38.7153,112.7575,-6.84,35,0,3.29,CN,1738595117
369,nanyang,32.9947,112.5328,4.34,46,0,1.71,CN,1738595118
370,ar ruways,24.1103,52.7306,16.89,59,0,3.33,AE,1738595119
371,san juan de miraflores,-12.1629,-76.9635,24.29,79,59,3.01,PE,1738595120
372,queanbeyan,-35.35,149.2333,19.69,89,0,2.06,AU,1738595121
373,abra pampa,-22.7205,-65.697,17.06,25,0,1.11,AR,1738595122
374,condoto,5.0935,-76.6497,27.54,82,100,0.61,CO,1738595123
375,ngama,11.7833,17.1667,36.36,8,14,4.51,TD,1738595124
376,aasiaat,68.7098,-52.8699,-16.56,92,100,3.29,GL,1738595125
377,santiago,-33.4569,-70.6483,25.59,35,0,1.54,CL,1738594405
378,tannum sands,-23.9504,151.3693,26.94,78,75,5.66,AU,1738595128
379,otok,45.1467,18.8839,4.24,64,99,1.53,HR,1738595129
380,bardai,11.65,7.2333,33.31,8,42,5.01,NG,1738595130
381,cruzeiro do sul,-29.5128,-51.9853,35.29,48,0,0.64,BR,1738595021
382,ola,59.5833,151.2833,-28.09,86,12,3.09,RU,1738595132
383,talavera de la reina,39.9635,-4.8308,12.66,46,1,5.1,ES,1738595133
384,les anglais,18.3054,-74.2197,26.71,65,17,1.14,HT,1738595134
385,alofi,-19.0595,-169.9187,23.94,94,20,1.54,NU,1738595135
386,midvagur,62.0511,-7.1939,9.46,76,75,12.35,FO,1738595136
387,beledweyne,4.7358,45.2036,31.92,14,27,6.96,SO,1738595137
388,bayanhongor,46.7167,100.1167,-27.8,85,97,1.32,MN,1738595138
389,nova sintra,14.8667,-24.7167,23.04,60,3,7.29,CV,1738594638
390,santa cruz,-17.8,-63.1667,30.03,70,20,7.2,BO,1738594919
391,gaspe,48.8334,-64.4819,-13.88,78,100,0.0,CA,1738594917
392,kerikeri,-35.2268,173.9474,14.97,95,43,1.2,NZ,1738595143
393,ramadi,33.4226,43.3058,15.56,31,100,0.54,IQ,1738595144
394,port augusta,-32.5,137.7667,29.65,48,97,2.81,AU,1738595145
395,sona,45.4388,10.8255,12.7,64,0,1.54,IT,1738595146
396,callao,-12.0667,-77.15,25.16,69,0,2.57,PE,1738595147
397,tubarjal,30.4999,38.216,17.85,17,100,2.17,SA,1738595148
398,uruguaiana,-29.7547,-57.0883,33.96,49,0,2.57,BR,1738595149
399,port blair,11.6667,92.75,25.02,83,40,1.03,IN,1738595150
400,la'ie,21.6477,-157.9253,18.36,75,5,4.0,US,1738595151
401,ugoofaaru,5.6667,73.0,27.94,71,23,4.35,MV,1738595152
402,mugia,43.1041,-9.2179,13.28,69,1,2.36,ES,1738595153
403,roma,43.2128,-75.4557,2.05,92,100,2.24,US,1738595154
404,piton saint-leu,-21.2196,55.3151,28.06,79,75,7.72,RE,1738595155
405,huaiyuan chengguanzhen,32.9589,117.1657,3.74,53,4,0.81,CN,1738595156
406,colonia,50.9333,6.95,7.13,74,0,2.06,DE,1738594609
407,viedma,-40.8135,-62.9967,22.64,23,0,6.51,AR,1738594895
408,bardstown,37.8092,-85.4669,15.52,61,0,5.14,US,1738595161
409,maslyanino,54.3436,84.2111,-10.34,97,100,1.95,RU,1738595162
410,lahad datu,5.0268,118.327,23.99,94,53,2.24,MY,1738595163
411,acapulco de juarez,16.8634,-99.8901,25.9,89,0,1.03,MX,1738595064
412,nguigmi,14.2495,13.1092,31.64,10,5,4.05,NE,1738595165
413,ilulissat,69.2167,-51.1,-26.95,99,100,3.33,GL,1738594611
414,island harbour,50.724,-1.2758,11.13,86,93,1.79,GB,1738595167
415,kegen,43.0197,79.2203,-17.15,79,3,2.91,KZ,1738595168
416,vredendal,-31.6683,18.5012,31.15,28,0,10.47,ZA,1738594932
417,anton lizardo,19.05,-95.9833,22.12,84,18,2.42,MX,1738595172
418,alaghsas,17.0187,8.0168,30.94,8,76,6.69,NE,1738595173
419,calipatria,33.1256,-115.5142,15.29,40,99,0.44,US,1738595174
420,waingapu,-9.6567,120.2641,26.49,88,100,3.34,ID,1738595175
421,n'zeto,-7.2312,12.8666,28.4,70,94,2.77,AO,1738595176
422,buala,-8.145,159.5921,27.27,78,100,2.12,SB,1738595177
423,fortaleza,-3.7227,-38.5247,32.07,51,20,8.23,BR,1738595003
424,filingue,14.3521,3.3168,34.05,9,56,4.05,NE,1738595179
425,nosy varika,-20.5833,48.5333,26.56,79,100,7.12,MG,1738595180
426,geraldton,-28.7667,114.6,23.23,83,20,8.23,AU,1738594955
427,ladario,-19.0047,-57.6017,33.16,52,75,2.57,BR,1738595132
428,holmsund,63.706,20.3641,-11.03,78,75,4.63,SE,1738595184
429,pasni,25.2631,63.471,20.3,50,0,7.04,PK,1738595185
430,dalandzadgad,43.5708,104.425,-14.1,70,100,4.52,MN,1738595186
431,boise,43.6135,-116.2035,1.47,97,100,3.09,US,1738595014
432,cabugao,17.7931,120.4578,24.13,82,17,7.18,PH,1738595188
433,puerto baquerizo moreno,-0.9,-89.6,27.55,69,75,4.63,EC,1738595189
434,oppdal,62.5943,9.6912,-3.0,84,100,5.71,NO,1738595191
435,obo,5.3998,26.4869,36.78,14,53,3.1,CF,1738595192
436,lisakovsk,52.5369,62.4936,-6.87,95,100,3.78,KZ,1738595193
437,ad darb,17.7229,42.2526,26.4,71,28,3.55,SA,1738595195
438,fuyu,45.1833,124.8167,-24.91,100,21,1.83,CN,1738595196
439,pandan,14.0453,124.1694,24.1,85,89,2.74,PH,1738595197
440,durres,41.3231,19.4414,17.1,68,100,4.13,AL,1738595198
441,aktobe,50.2797,57.2072,-3.95,80,100,4.0,KZ,1738595199
442,nar'yan-mar,67.6713,53.087,-26.31,90,5,4.43,RU,1738594604
443,hami,42.8,93.45,-4.34,56,0,3.13,CN,1738595201
444,dumas,35.8656,-101.9732,14.08,28,0,6.69,US,1738595202
445,mpanda,-6.3655,31.0409,23.64,86,100,0.63,TZ,1738595203
446,kirakira,-10.4544,161.9205,27.73,80,100,4.62,SB,1738595204
447,esmoriz,40.9577,-8.6275,15.5,53,0,1.89,PT,1738595205
448,jamaame,0.0697,42.745,26.16,66,14,7.97,SO,1738595206
449,vicksburg,32.3526,-90.8779,15.85,88,100,4.12,US,1738595208
450,strathmore,51.0501,-113.3852,-27.39,96,100,1.69,CA,1738595210
451,el alto,-4.2714,-81.2147,24.51,63,64,2.29,PE,1738595211
452,sheridan,44.8333,-106.9173,-17.21,84,100,3.09,US,1738595212
453,tindouf,27.6711,-8.1474,21.39,20,0,3.71,DZ,1738595213
454,itoman,26.1247,127.6694,14.01,67,75,12.86,JP,1738594641
455,conduaga,8.862,117.4893,25.62,89,21,3.6,PH,1738595215
456,parnu,58.3859,24.4971,-1.95,80,100,2.57,EE,1738595216
457,aqadyr,48.2553,72.8483,-11.88,91,21,4.16,KZ,1738595217
458,sanya,18.2431,109.505,19.17,88,100,4.02,CN,1738595218
459,tocopilla,-22.092,-70.1979,23.31,76,3,2.12,CL,1738595219
460,katsuren-haebaru,26.3369,127.8719,14.01,78,100,5.14,JP,1738595220
461,bamboo flat,11.7,92.7167,25.05,83,40,1.03,IN,1738595221
462,sisimiut,66.9395,-53.6735,-16.49,95,100,2.06,GL,1738595222
463,hasaki,35.7333,140.8333,9.68,70,100,7.15,JP,1738595223
464,al artawiyah,26.5053,45.3444,15.29,23,0,1.74,SA,1738595225
465,labytnangi,66.6572,66.4183,-25.14,96,93,4.74,RU,1738594991
466,chernyshevskiy,63.0128,112.4714,-23.65,88,100,6.61,RU,1738595227
467,brookings,44.3114,-96.7984,-7.12,84,100,4.63,US,1738595175
468,washington,47.5001,-120.5015,-5.84,75,16,1.62,US,1738594761
469,alstonville,-28.8333,153.4333,20.08,97,99,0.96,AU,1738595231
470,banjar,-8.19,114.9675,26.36,90,99,1.59,ID,1738595232
471,prado,-17.3411,-39.2208,29.34,62,0,5.58,BR,1738595233
472,kuusamo,65.9667,29.1833,-16.98,85,0,1.54,FI,1738595234
473,arar,30.9753,41.0381,17.01,17,0,0.0,SA,1738595235
474,novodvinsk,64.4165,40.8122,-20.14,91,27,3.42,RU,1738595236
475,nago,26.5881,127.9761,12.64,70,100,8.66,JP,1738595237
476,hadibu,12.65,54.0333,22.41,59,68,7.08,YE,1738595238
477,palu,-0.8917,119.8707,24.63,97,100,0.5,ID,1738595240
478,nobres,-14.7203,-56.3275,27.62,75,93,4.46,BR,1738595241
479,okahandja,-21.9833,16.9167,21.19,68,99,2.26,NA,1738595242
480,port lincoln,-34.7333,135.8667,21.06,83,32,6.55,AU,1738595243
481,sakakah,29.9697,40.2064,19.76,16,100,1.92,SA,1738595244
482,dhidhdhoo,6.8833,73.1,27.97,72,100,3.84,MV,1738595245
483,nyagan,62.1406,65.3936,-21.47,100,95,1.53,RU,1738595246
484,broome,42.2506,-75.833,1.93,87,100,1.54,US,1738595248
485,afaahiti,-17.75,-149.2833,25.72,77,42,4.06,PF,1738595249
486,es castell,39.8795,4.2854,14.38,72,40,6.17,ES,1738595250
487,rock springs,41.5875,-109.2029,7.69,39,0,10.29,US,1738595251
488,bosaso,11.2842,49.1816,23.24,57,96,7.0,SO,1738595252
489,gebeit,21.0667,36.3167,23.71,32,57,6.53,SD,1738595253
490,challapalle,16.1167,80.9333,23.3,76,3,2.95,IN,1738595254
491,kiama,-34.6833,150.8667,23.1,82,13,3.13,AU,1738595255
492,benghazi,32.1167,20.0667,18.56,65,0,4.82,LY,1738595256
493,okhotsk,59.3833,143.3,-27.17,83,1,6.4,RU,1738595257
494,souppes-sur-loing,48.183,2.7352,7.83,63,0,0.86,FR,1738595258
495,whakatane,-37.9585,176.9854,19.73,91,98,0.76,NZ,1738595259
496,sungai penuh,-2.0833,101.3833,19.03,96,100,1.7,ID,1738595260
497,camiri,-20.05,-63.5167,36.02,23,0,2.6,BO,1738595261
498,praia da vitoria,38.7333,-27.0667,18.14,88,40,6.57,PT,1738595262
499,port-gentil,-0.7193,8.7815,27.51,73,81,3.56,GA,1738595264
500,baykal'sk,51.5058,104.1469,-14.12,94,100,2.11,RU,1738595265
501,malchin,53.7333,12.7833,2.82,73,79,2.3,DE,1738595267
502,tidjikja,18.5564,-11.4271,24.87,8,0,6.18,MR,1738595269
503,manggar,-2.8833,108.2667,26.54,80,100,4.74,ID,1738595270
504,mahina,-17.5065,-149.489,24.87,78,42,1.54,PF,1738595271
505,cape coast,5.1053,-1.2466,28.84,69,72,4.87,GH,1738595272
506,fisterra,42.9049,-9.2629,11.71,68,0,1.87,ES,1738595273
507,qarazhal,48.0078,70.7903,-10.77,87,9,4.17,KZ,1738595274
508,mundri,-6.9558,111.71,24.84,90,100,2.66,ID,1738595275
509,nzerekore,7.7562,-8.8179,34.5,12,89,1.94,GN,1738595277
510,sevsk,52.1491,34.4926,-0.81,76,100,2.29,RU,1738595278
511,shaowu,27.3409,117.4831,5.31,94,50,1.37,CN,1738595281
512,khovd,48.0056,91.6419,-19.75,78,87,2.57,MN,1738595282
513,axim,4.8699,-2.2405,29.09,68,42,4.19,GH,1738595283
514,shimabara,32.7833,130.3667,1.33,86,81,6.29,JP,1738595284
515,burang,30.25,81.1667,-13.46,35,0,1.85,CN,1738595202
516,plastun,44.7561,136.2939,-9.38,75,100,4.54,RU,1738595286
517,tirumullaivasal,11.2333,79.8333,23.32,77,100,3.73,IN,1738595287
518,les cayes,18.2,-73.75,28.68,61,0,2.69,HT,1738595291
519,raja,8.4596,25.678,35.3,12,21,3.28,SS,1738595292
520,loango,-4.6719,11.8312,27.99,75,96,3.79,CG,1738595294
521,morris,40.8334,-74.5329,1.48,84,75,2.57,US,1738595295
522,pecica,46.1667,21.0667,5.62,79,0,6.17,RO,1738595296
523,choyr,46.3611,108.3611,-22.83,91,16,2.86,MN,1738595297
524,trapani,37.8333,12.6667,14.6,71,32,2.88,IT,1738595298
525,urzhar,47.093,81.6294,-11.21,76,0,3.77,KZ,1738595299
526,extrema,-22.8547,-46.3183,22.22,84,100,3.53,BR,1738595300
527,baryshevo,54.9564,83.1822,-8.2,96,100,3.42,RU,1738595301
528,upington,-28.4478,21.2561,39.39,8,0,5.91,ZA,1738595302
529,belyy yar,53.6039,91.3903,-17.06,100,100,0.0,RU,1738595303
530,chippewa falls,44.9369,-91.3929,-1.99,94,100,4.12,US,1738595095
531,nieuw amsterdam,5.8833,-55.0833,26.85,79,36,4.97,SR,1738595305
532,yeppoon,-23.1333,150.7333,25.5,81,100,6.96,AU,1738595306
533,north platte,41.1239,-100.7654,-4.06,74,100,8.75,US,1738595307
534,cabadbaran,9.1236,125.5344,23.67,89,81,1.6,PH,1738595262
535,i-n-salah,27.1935,2.4607,20.48,19,0,4.78,DZ,1738595310
536,mildura,-34.2,142.15,27.26,54,100,5.15,AU,1738595311
537,tuy hoa,13.0833,109.3,22.4,81,100,3.71,VN,1738595312
538,mata-utu,-13.2816,-176.1745,28.02,76,18,3.03,WF,1738595313
539,argostolion,38.1811,20.489,17.04,77,40,2.06,GR,1738595314
540,kapuskasing,49.4169,-82.4331,-11.17,89,100,5.3,CA,1738595262
541,safaga,26.7292,33.9365,21.78,46,100,1.36,EG,1738595316
542,tambura,5.6,27.4667,36.87,14,96,2.83,SS,1738595317
543,opuwo,-18.0607,13.84,31.01,34,100,0.98,NA,1738595318
544,werota,11.9167,37.7,26.96,18,89,3.97,ET,1738595319
545,yongfeng,27.4283,112.1834,6.27,75,5,1.22,CN,1738595245
546,fort bragg,35.139,-79.006,6.91,96,100,0.0,US,1738595228
547,tinogasta,-28.0632,-67.5649,31.68,35,2,3.1,AR,1738595323
548,daru,-9.0763,143.2092,26.65,86,100,6.17,PG,1738595324
549,raahe,64.6833,24.4833,-14.68,97,20,3.17,FI,1738595218
550,al ain city,24.1917,55.7606,19.79,42,0,3.6,AE,1738595326
551,penrith,54.6658,-2.7576,6.83,84,100,5.97,GB,1738595327
552,taungoo,18.9333,96.4333,21.32,39,5,1.19,MM,1738595328
553,konarka,19.9,86.1167,24.76,86,0,4.62,IN,1738595329
554,gazli,40.1333,63.45,4.43,47,100,1.92,UZ,1738595331
555,motueka,-41.1333,173.0167,16.17,89,0,1.05,NZ,1738595332
556,taltal,-25.4,-70.4833,21.25,74,2,2.04,CL,1738595333
557,tofol,5.3248,163.0078,27.98,80,51,11.18,FM,1738595334
558,arsen'yev,44.1631,133.2733,-18.68,100,100,0.6,RU,1738595335
559,nicholasville,37.8806,-84.573,14.08,63,0,6.17,US,1738595120
560,fort st. john,56.2499,-120.8529,-29.82,100,89,0.88,CA,1738595338
561,ketchikan,55.3422,-131.6461,-5.01,27,0,5.66,US,1738595339
562,kayyerkan,69.3786,87.7439,-22.24,87,100,2.99,RU,1738595340
563,juegang,32.3174,121.1855,1.46,54,48,2.05,CN,1738595341
564,nema,57.5067,50.5011,-2.31,96,100,3.9,RU,1738595342
565,moron,-34.6534,-58.6198,35.54,48,52,9.39,AR,1738595285
566,sharan,54.8167,54.0,-2.18,93,100,5.51,RU,1738595344
567,ak'ordat,15.5486,37.8867,32.83,22,36,3.9,ER,1738595345
568,ciudad acuna,29.3232,-100.9522,15.32,74,0,3.6,MX,1738595346
569,sao joao da barra,-21.6403,-41.0511,34.05,74,100,3.82,BR,1738595114
570,sao miguel do araguaia,-13.275,-50.1628,21.08,99,100,2.18,BR,1738595348
571,alamosa,37.4695,-105.87,-2.01,74,0,3.6,US,1738595349
572,kyren,51.6828,102.1408,-17.17,97,100,0.79,RU,1738595350
573,khandyga,62.6667,135.6,-37.54,97,100,2.2,RU,1738595351
574,kotka,60.4664,26.9458,-7.04,78,100,5.38,FI,1738595352
575,hobyo,5.3505,48.5268,24.34,72,11,11.06,SO,1738595354
576,contamana,-7.3333,-75.0167,29.12,59,96,1.81,PE,1738595355
577,belmonte,-15.8631,-38.8828,29.98,58,7,4.4,BR,1738595356
578,oruro,-17.9833,-67.15,14.11,37,5,1.9,BO,1738595225
579,niamey,13.5137,2.1098,34.47,10,100,4.0,NE,1738595358
580,juan l. lacaze,-34.4333,-57.4167,32.33,45,3,0.63,UY,1738595359
581,miyako,39.6367,141.9525,3.3,92,100,2.13,JP,1738595107
582,bushehr,28.9684,50.8385,18.05,52,76,7.2,IR,1738595361
583,barentu,15.1139,37.5928,30.03,20,62,6.28,ER,1738595362
584,kidal,18.4411,1.4078,28.56,9,89,2.39,ML,1738595252
585,sombrio,-29.1139,-49.6167,30.02,60,21,3.98,BR,1738595364
586,bengkulu,-3.8004,102.2655,25.64,91,100,2.68,ID,1738595365
587,kuta,-8.7233,115.1723,28.97,89,20,4.63,ID,1738595311
588,khon buri,14.5254,102.2459,24.14,41,0,2.02,TH,1738595352
589,tataouine,32.9297,10.4518,15.1,32,0,6.69,TN,1738595369
590,cayon,17.35,-62.7333,28.74,61,40,8.75,KN,1738595370
591,paka,4.6374,103.4368,25.55,83,100,2.9,MY,1738595334
592,lodja,-3.4833,23.4333,29.41,56,98,1.92,CD,1738595372
593,brumado,-14.2036,-41.6653,32.42,34,72,3.79,BR,1738595373
594,zhezqazghan,47.7833,67.7667,-11.68,92,0,8.0,KZ,1738595374
595,bonthe,7.5264,-12.505,31.37,47,72,5.59,SL,1738595375
596,san clemente del tuyu,-36.3569,-56.7235,27.42,67,27,4.74,AR,1738595376
